[["Delhi, India",{"value":{"location":{"type":"Point","coordinates":[77.10249019999999,28.7040592]},"description":"Delhi, India","place_id":"ChIJLbZ-NFv9DDkRQJY4FbcFcgM"}}],["Coimbatore, Tamil Nadu, India",{"value":{"location":{"type":"Point","coordinates":[76.9558321,11.0168445]},"description":"Coimbatore, Tamil Nadu, India","place_id":"ChIJtRyXL69ZqDsRgtI-GB7IwS8"}}],["Srinagar",{"value":{"location":{"type":"Point","coordinates":[74.7972825,34.0836708]},"description":"Srinagar","place_id":"ChIJ78XjhlaF4TgRxgXjwXxLJGY"}}],["Palwal, Haryana 121102, India",{"value":{"location":{"type":"Point","coordinates":[77.3259878,28.1472852]},"description":"Palwal, Haryana 121102, India","place_id":"ChIJn0ijmK3TDDkRBeK86uqZl4U"}}],["Keladevi, Rajasthan 322243, India",{"value":{"location":{"type":"Point","coordinates":[76.893714,26.3393935]},"description":"Keladevi, Rajasthan 322243, India","place_id":"ChIJQ9v2sDSScTkRr3bUmeOeSMs"}}],["Agra, Uttar Pradesh, India",{"value":{"location":{"type":"Point","coordinates":[78.00807449999999,27.1766701]},"description":"Agra, Uttar Pradesh, India","place_id":"ChIJ2UEvfIUNdDkRQjtSqTjvSng"}}],["Kanpur, Uttar Pradesh, India",{"value":{"location":{"type":"Point","coordinates":[80.3318736,26.449923]},"description":"Kanpur, Uttar Pradesh, India","place_id":"ChIJb8QnsXBHnDkRQXu-nyoweBc"}}],["Hathras, Uttar Pradesh 204101, India",{"value":{"location":{"type":"Point","coordinates":[78.0492265,27.5980718]},"description":"Hathras, Uttar Pradesh 204101, India","place_id":"ChIJNXnCJjKbdDkR9MLtXkC6gRo"}}],["Mathura, Uttar Pradesh, India",{"value":{"location":{"type":"Point","coordinates":[77.673673,27.4924134]},"description":"Mathura, Uttar Pradesh, India","place_id":"ChIJBVJNPRZxczkRpQ7h752gc0I"}}]]